City_ID,City,Country,Max Temp,Current Descritpion,Lat,Lng,Hotel Name
0,Kapaa,US,75.52,light rain,22.0752,-159.319,Sheraton Kauai Coconut Beach Resort
1,Port Alfred,ZA,64.08,clear sky,-33.5906,26.891,The Halyards Hotel
3,Vaini,TO,64.56,broken clouds,-21.2,-175.2,Keleti Beach Resort
4,Lebu,CL,55.31,overcast clouds,-37.6167,-73.65,Hostal Las Lilas
5,Butaritari,KI,81.64,light rain,3.0707,172.7902,Isles Sunset Lodge
6,Airai,TL,58.26,broken clouds,-8.9266,125.4092,Juvinal Martin
7,Saint-Philippe,RE,72.95,scattered clouds,-21.3585,55.7679,"Chambres d'hôte ""La Trinité"""
8,Rikitea,PF,73.96,broken clouds,-23.1203,-134.9692,Pension Maro'i
10,Vega De Alatorre,MX,88.5,scattered clouds,20.0333,-96.6333,El Polo Norte
11,Esperance,AU,60.64,overcast clouds,-33.8667,121.9,Hospitality Esperance
13,Shimoda,JP,69.17,moderate rain,34.6667,138.95,Shimoda Tokyu Hotel
15,Cape Town,ZA,63.88,light rain,-33.9258,18.4232,Southern Sun Waterfront Cape Town
16,Bengkulu,ID,75.4,light rain,-3.8004,102.2655,Grage Hotel Bengkulu
17,Vilcun,CL,50.74,overcast clouds,-38.65,-72.2333,"Rayen-Co, Rural Tourism"
18,Souillac,MU,74.35,few clouds,-20.5167,57.5167,Shanti Maurice Resort & Spa
20,Albany,US,58.26,overcast clouds,42.6001,-73.9662,
21,Sinnamary,GF,79.5,broken clouds,5.3833,-52.95,ALETHEIA Appartement Sinnamary
23,Price,US,74.71,clear sky,39.5994,-110.8107,National 9 - Price River Inn
24,Laguna,US,77.85,clear sky,38.421,-121.4238,"Holiday Inn Express & Suites Elk Grove Central - Hwy 99, an IHG Hotel"
25,Ponta Do Sol,PT,75.0,scattered clouds,32.6667,-17.1,Hotel do Campo
28,Arraial Do Cabo,BR,85.96,clear sky,-22.9661,-42.0278,Pousada Porto Praia
29,Puerto Ayora,EC,76.96,overcast clouds,-0.7393,-90.3518,Finch Bay Galapagos Hotel
30,Melfi,IT,78.49,clear sky,40.9965,15.6514,HOTEL TERME DI RAPOLLA
31,Ribeira Grande,PT,66.6,few clouds,38.5167,-28.7,Quinta da Meia Eira
33,Mahebourg,MU,74.25,few clouds,-20.4081,57.7,Shandrani Beachcomber Resort & Spa
35,Hilo,US,74.28,overcast clouds,19.7297,-155.09,Hilo Hawaiian Hotel
37,Khabary,RU,51.28,broken clouds,53.6259,79.5345,ИП Аксёнова С.В.
39,Hambantota,LK,81.05,overcast clouds,6.1241,81.1185,Bungalow 63
40,Geraldton,AU,65.12,light rain,-28.7667,114.6,Broadwater Mariner Resort
41,Chuy,UY,62.96,moderate rain,-33.6971,-53.4616,Nuevo Hotel Plaza
43,Taltal,CL,65.93,scattered clouds,-25.4,-70.4833,Residencial Karime
44,Carnarvon,AU,69.87,moderate rain,-24.8667,113.6333,Hospitality Carnarvon
45,Port Elizabeth,ZA,66.49,clear sky,-33.918,25.5701,39 On Nile Guest House
46,Vryburg,ZA,59.88,clear sky,-26.9566,24.7284,Times Premier Lodge
47,Kumbo,CM,63.81,light rain,6.2,10.6667,Western Inn Resort
50,Lazaro Cardenas,MX,87.46,broken clouds,17.9583,-102.2,Hotel Quinta Antigua
52,Donskoye,RU,77.13,few clouds,45.4552,41.9741,
53,Katobu,ID,74.08,clear sky,-4.9408,122.5276,La Ode Husein
54,Shingu,JP,68.92,overcast clouds,33.7333,135.9833,Shingu UI Hotel
55,Yarada,IN,89.92,scattered clouds,17.65,83.2667,Jeevan
57,Sur,OM,88.29,clear sky,22.5667,59.5289,Sur Plaza Hotel
59,Voyinka,UA,67.55,overcast clouds,45.8699,33.9914,
61,Busselton,AU,61.05,overcast clouds,-33.65,115.3333,Observatory Guest House
62,Manokwari,ID,78.76,scattered clouds,-0.8667,134.0833,Swiss Belhotel Manokwari
64,Leh,IN,52.29,clear sky,34.1667,77.5833,Hotel Ladakh Greens
65,Half Moon Bay,US,68.11,overcast clouds,37.4636,-122.4286,"The Ritz-Carlton, Half Moon Bay"
66,Santa Rosa,PH,87.78,broken clouds,14.3122,121.1114,Erlyn’s Sta Rosa City Home
67,Harper,LR,83.17,overcast clouds,4.375,-7.7169,Screensaver
68,Hermanus,ZA,62.8,few clouds,-34.4187,19.2345,Misty Waves Boutique Hotel
69,Atuona,PF,79.77,few clouds,-9.8,-139.0333,Villa Enata
70,Cidreira,BR,63.14,heavy intensity rain,-30.1811,-50.2056,Hotel Castelo
71,Hede,CN,61.86,light rain,33.7681,120.2517,Vienna 3 Best Hotel Sheyang Jiefang Rd
73,Kirakira,SB,76.32,overcast clouds,-10.4544,161.9205,SanBiz Lodge
75,Peru,US,54.21,overcast clouds,40.7537,-86.0689,Cole Porter Inn
76,Majene,ID,78.42,few clouds,-3.5403,118.9707,Kost Putri RABBANI
77,Merauke,ID,76.15,overcast clouds,-8.4667,140.3333,
78,Hobyo,SO,80.1,broken clouds,5.3505,48.5268,Halane Hotel and Restaurent
79,Macenta,GN,73.4,moderate rain,8.5435,-9.471,Hôtel Yansané
80,Jamestown,US,50.29,moderate rain,42.097,-79.2353,Hampton Inn & Suites Jamestown
83,Faya,SA,73.51,scattered clouds,18.3851,42.4509,مقبرة ال مجمل
84,Puerto Maldonado,PE,88.2,few clouds,-12.6,-69.1833,Wasai Hotel
86,Cayenne,GF,87.84,broken clouds,4.9333,-52.3333,Hôtel Le Dronmi
87,Collecchio,IT,76.19,few clouds,44.754,10.2184,Hotel Campus Collecchio
88,Valle De Allende,MX,87.12,clear sky,26.9333,-105.4,Hotel Meson de San Bartolome
89,Nikolskoye,RU,57.78,broken clouds,59.7035,30.7861,Tourist House - Sablino
90,Bambous Virieux,MU,74.21,few clouds,-20.3428,57.7575,Casa Tia Villa
92,Westerland,DE,54.18,broken clouds,54.9079,8.3033,Dorint Strandhotel & Spa Westerland / Sylt
93,Lompoc,US,58.68,overcast clouds,34.6391,-120.4579,"Holiday Inn Express Lompoc, an IHG Hotel"
94,Trairi,BR,85.82,few clouds,-3.2778,-39.2689,janelas do mar
95,Pasan,IN,79.47,overcast clouds,22.85,82.2,Ashok Hotel
97,Palencia,ES,74.91,overcast clouds,42.4167,-4.5,Hotel Area de Servicio Los Chopos
99,Alyangula,AU,66.07,scattered clouds,-13.8483,136.4192,Groote Eylandt Lodge
100,Bafq,IR,86.49,clear sky,31.6128,55.4107,Alamdar Hotel
102,Key West,US,84.0,clear sky,24.5557,-81.7826,Fairfield Inn & Suites by Marriott Key West
105,Oparino,RU,57.04,overcast clouds,59.8518,48.2783,"Gostinitsa ""Oparino"""
106,Phan Thiet,VN,78.96,scattered clouds,10.9333,108.1,Hotel Saigon-PT
107,Gwadar,PK,88.0,clear sky,25.1216,62.3254,Sadaf Resort
110,Marienburg,PL,57.87,overcast clouds,54.0359,19.0266,Hotel Centrum Malbork
111,Grindavik,IS,56.55,moderate rain,63.8424,-22.4338,Northern Light Inn & Max's Restaurant
112,Bredasdorp,ZA,62.28,clear sky,-34.5322,20.0403,Bredasdorp Country Manor
113,Georgetown,MY,82.35,few clouds,5.4112,100.3354,Cititel Penang
114,Northam,GB,62.67,overcast clouds,51.0333,-4.2167,Durrant House Hotel
115,Olinda,BR,73.13,broken clouds,-8.0089,-34.8553,Hotel Albergue de Olinda
116,Thompson,CA,57.36,broken clouds,55.7435,-97.8558,Burntwood Hotel
117,Caldararu,RO,56.68,overcast clouds,44.45,24.95,Resedința SeBBa
120,Forrest City,US,75.06,overcast clouds,35.0081,-90.7898,Hampton Inn Forrest City
122,Meulaboh,ID,75.61,overcast clouds,4.1363,96.1285,Kost Pria
123,Bethel,US,66.45,broken clouds,41.3712,-73.414,Courtyard by Marriott Danbury
125,Yellowknife,CA,53.33,scattered clouds,62.456,-114.3525,The Explorer Hotel
128,Nara,JP,69.08,overcast clouds,34.6851,135.8049,Guesthouse Nara Komachi
129,Takoradi,GH,83.57,broken clouds,4.8845,-1.7554,Raybow International Hotel
130,Portland,US,59.52,broken clouds,45.5234,-122.6762,Embassy Suites by Hilton Portland Downtown
131,Ornskoldsvik,SE,58.82,clear sky,63.2909,18.7153,ファーストホテル スタット
133,Ketchikan,US,50.47,overcast clouds,55.3422,-131.6461,Snows Cove Lodge
134,Linda,US,81.52,clear sky,39.1277,-121.5508,Comfort Suites Marysville-Yuba City
137,Oxford,GB,65.41,few clouds,51.7522,-1.256,Malmaison Oxford
138,Oistins,BB,86.09,few clouds,13.0667,-59.5333,Butterfly Beach Hotel
139,Calabozo,VE,85.05,overcast clouds,8.9242,-67.4293,Hotel Giardini
140,Puerto Escondido,MX,88.63,broken clouds,15.85,-97.0667,Aldea del Bazar Hotel and Spa
142,Narsaq,GL,57.42,broken clouds,60.9167,-46.05,Narsaq Kayak Hostel
143,Kijang,KR,64.13,clear sky,35.2442,129.2139,Samyang Beach Villa
144,Hithadhoo,MV,82.94,overcast clouds,-0.6,73.0833,Scoop Guest House
145,Katsuura,JP,70.2,light rain,35.1333,140.3,Katsuura Hotel Mikazuki
146,Ahipara,NZ,57.49,moderate rain,-35.1667,173.1667,Ahipara Holiday Park
147,Petropavlovka,RU,53.67,broken clouds,50.6114,105.3196,Tuyaa
148,Paita,PE,75.76,overcast clouds,-5.0892,-81.1144,Hotel Náutico de Paita
149,Konde,TZ,76.95,scattered clouds,-4.95,39.75,
150,Ust-Shonosha,RU,54.16,clear sky,61.1531,41.343,
151,Coquimbo,CL,62.33,scattered clouds,-29.9533,-71.3436,Punto de encuentro
152,Carutapera,BR,86.7,clear sky,-1.195,-46.02,Lidera
153,Namatanai,PG,79.41,overcast clouds,-3.6667,152.4333,Namatanai Hotel
154,Bundaberg,AU,55.69,broken clouds,-24.85,152.35,Takalvan Motel
155,Areni,AM,79.16,scattered clouds,39.7191,45.1799,Park-Hotel Khoren's Lake
156,Castro,BR,70.97,overcast clouds,-24.7911,-50.0119,CHACARA BAILLY
159,Quelimane,MZ,76.95,few clouds,-17.8786,36.8883,Hotel Flamingo
160,Saint George,US,88.27,clear sky,37.1041,-113.5841,Best Western Plus Abbey Inn
161,Zambezi,ZM,63.46,clear sky,-13.5432,23.1047,Royal Kutachika Lodge
162,Kimbe,PG,75.09,overcast clouds,-5.5502,150.1429,Kimbe Bay Hotel
164,Avarua,CK,69.85,overcast clouds,-21.2078,-159.775,Paradise Inn
167,Flin Flon,CA,53.44,broken clouds,54.7682,-101.865,Victoria Inn Flin Flon
168,Asgabat,TM,89.46,broken clouds,37.95,58.3833,Oguzkent Hotel
169,Beloha,MG,65.98,clear sky,-25.1667,45.05,
170,Kalmunai,LK,82.38,broken clouds,7.4167,81.8167,VS Villa
171,San Andres,CO,87.82,few clouds,12.5847,-81.7006,Hotel Arena Blanca
172,Viborg,DK,54.88,broken clouds,56.4532,9.402000000000001,Palads Hotel
173,Gat,IL,78.78,clear sky,31.61,34.7642,OlusHome
174,Pacific Grove,US,67.8,overcast clouds,36.6177,-121.9166,Lovers Point Inn
176,Yuncheng,CN,68.94,light rain,35.0231,110.9928,晋州快捷酒店
177,Swift Current,CA,61.61,clear sky,50.2834,-107.8014,"Motel 6 Swift Current, SK"
178,Port Blair,IN,82.08,overcast clouds,11.6667,92.75,"Welcomhotel By ITC Hotels, Bay Island, Port Blair"
180,Charlestown,AU,53.85,overcast clouds,-32.95,151.6667,Panorama Motor Inn Hotel
181,Banjar,ID,80.46,overcast clouds,-8.19,114.9675,The Hamsa Resort
182,Altay,CN,61.11,clear sky,47.8667,88.1167,Jinqiao Hotel
183,Mayo,US,77.4,few clouds,38.8876,-76.5119,Resorts Resource Group International
184,Tautira,PF,73.42,scattered clouds,-17.7333,-149.15,Pension Oaoa
185,Banyo,CM,73.74,light rain,6.75,11.8167,Motel JOMBA
186,Husavik,IS,58.91,few clouds,66.0449,-17.3389,Bjarnabúð
189,Poum,NC,72.5,clear sky,-20.2333,164.0167,Gîte kajeon
191,Broome,US,54.99,light rain,42.2506,-75.833,Chenango Valley State Park
193,Thinadhoo,MV,84.78,broken clouds,0.5333,72.9333,
194,Gigmoto,PH,81.01,overcast clouds,13.7796,124.39,Cj's Travellers Inn
195,Speightstown,BB,86.61,few clouds,13.25,-59.65,Legend Garden Condos
196,Hualmay,PE,70.86,scattered clouds,-11.0964,-77.6139,Hotel Villa Kitzia Huacho
197,Umm Lajj,SA,85.48,scattered clouds,25.0213,37.2685,Moon light Furnished Units
199,Marzuq,YE,83.84,broken clouds,14.4,46.4667,
200,Aleksinac,RS,64.31,broken clouds,43.5417,21.7078,Hostel Teresianum
201,Kristiinankaupunki,FI,53.56,clear sky,62.2743,21.375999999999998,Hotel Alma
202,Luena,AO,61.75,clear sky,-11.7833,19.9167,Hotel Kandamba
203,Natal,BR,88.02,scattered clouds,-5.795,-35.2094,Villa Park Hotel | Natal
204,Suffolk,US,68.29,few clouds,40.8668,-72.7996,Greenwood Village
207,Hami,CN,80.67,few clouds,42.8,93.45,Laoyutang Resort
208,Koumac,NC,68.67,few clouds,-20.5667,164.2833,Le Monitel
209,Mar Del Plata,AR,65.08,light rain,-38.0023,-57.5575,Gran Hotel Mar del Plata
210,Salcininkai,LT,55.0,overcast clouds,54.3,25.3833,Kesminta
211,Thunder Bay,CA,52.99,clear sky,48.4001,-89.3168,Victoria Inn Hotel and Convention Centre
212,Ceres,US,77.68,clear sky,37.5949,-120.9577,Howard Johnson by Wyndham Modesto Ceres
213,Andros Town,BS,84.16,broken clouds,24.7,-77.7667,Hanks place
214,Rocha,UY,68.59,scattered clouds,-34.4833,-54.3333,Beleza Pura B&B
216,Saldanha,ZA,59.05,light rain,-33.0117,17.9442,Blue Bay Lodge
217,Kaitangata,NZ,50.94,moderate rain,-46.2817,169.8464,Kaitangata Motor Camp
218,Birjand,IR,81.07,few clouds,32.8663,59.2211,Birjand Tourist Hotel
219,Ambon,ID,77.14,light rain,-3.6954,128.1814,Swiss-Belhotel Ambon
221,Bontang,ID,82.44,broken clouds,0.1333,117.5,KOPKAR Hotel Bintang Sintuk
222,Salinas,US,67.96,overcast clouds,36.6777,-121.6555,Laurel Inn & Conference Center
223,Kruisfontein,ZA,63.88,clear sky,-34.0033,24.7314,Oyster Bay House Rental
224,Aromashevo,RU,58.68,overcast clouds,56.8602,68.6375,Gostinichnyy Kompleks Milan
225,San Patricio,US,87.89,broken clouds,28.017,-97.5169,"Motel 6 Sinton, TX"
226,Dingle,PH,78.78,light rain,10.9995,122.6711,SEGAYA PROPERTY
227,Saint Anthony,US,54.18,clear sky,45.0205,-93.21799999999999,"Holiday Inn Express Roseville-St. Paul, an IHG Hotel"
228,Namibe,AO,74.68,clear sky,-15.1961,12.1522,Hotel Chik Chik Namibe
230,Fereydunshahr,IR,62.44,scattered clouds,32.941,50.121,موسسه آسمان پرواز پرتیکان
231,Barra Dos Coqueiros,BR,84.22,few clouds,-10.9089,-37.0386,Jangadeiro
232,Asau,RO,58.39,light rain,46.4333,26.4,Casa Mika Ciobanus
237,San Felipe,VE,81.18,broken clouds,10.3399,-68.7425,Posada Llovizna Rodríguez
240,Palmer,US,62.58,overcast clouds,42.1584,-72.3287,Wedgewood Motel
241,Lasa,IT,72.48,broken clouds,46.6166,10.7002,Pension Feldgärtenhof
242,Huarmey,PE,71.62,broken clouds,-10.0681,-78.1522,Hotel Miramar
245,Valparaiso,CL,64.63,few clouds,-33.0393,-71.6273,Hotel Ultramar
246,Kilindoni,TZ,78.15,scattered clouds,-7.9139,39.6668,Bustani B&B
249,Catamarca,AR,86.65,scattered clouds,-28.4696,-65.7852,Amerian Catamarca Park Hotel
251,Juruti,BR,87.71,scattered clouds,-2.1522,-56.0922,Hotel Acauã - ORLA
254,Scarborough,GB,64.22,overcast clouds,54.2797,-0.4044,Ambassador
256,Lagoa,PT,61.41,overcast clouds,39.05,-27.9833,Casa Das Faias
258,Auki,SB,75.94,light rain,-8.7676,160.7034,Auki Motel
260,Ngunguru,NZ,56.16,light rain,-35.6167,174.5,Pacific Rendezvous Motel Resort
261,East London,ZA,63.54,clear sky,-33.0153,27.9116,Tu Casa
263,Vyartsilya,RU,50.18,broken clouds,62.1764,30.693,Erakkoranta
264,Indramayu,ID,81.9,scattered clouds,-6.3264,108.32,Grand Trisula Hotel
267,Carballo,ES,78.58,few clouds,43.213,-8.691,Pazo do Souto
269,Bud,US,70.9,overcast clouds,39.446999999999996,-86.1758,Ted McQuinn Trust
271,La Macarena,CO,86.67,broken clouds,2.1837,-73.7849,Hotel Punto Verde
272,Izazi,TZ,74.16,broken clouds,-7.2,35.7333,
274,Camacha,PT,71.53,few clouds,33.0833,-16.3333,Hotel Porto Santo & Spa
276,Ancud,CL,51.42,overcast clouds,-41.8697,-73.8203,Hotel Arena Gruesa
277,Lakatoro,VU,71.91,broken clouds,-16.0999,167.4164,Lakatoro Palm Lodge
278,Pisco,PE,66.02,overcast clouds,-13.7,-76.2167,Hotel San Isidro Oficial
279,Bathsheba,BB,86.61,few clouds,13.2167,-59.5167,Atlantis Hotel
280,Ugoofaaru,MV,84.06,broken clouds,5.6667,73.0,Ungoofaaru Inn
281,Oktyabrskiy,RU,63.86,clear sky,54.4815,53.471000000000004,Уязы-Тау гостиница
282,Dali,CN,64.38,few clouds,25.7,100.1833,Dali Travelling With Hostel
283,Kuching,MY,75.42,scattered clouds,1.55,110.3333,The Ranee Boutique Suites
284,Bail Hongal,IN,75.65,scattered clouds,15.8167,74.8667,Sangam residency (Lodge)
285,Pangkalanbuun,ID,75.04,broken clouds,-2.6833,111.6167,Grand Kecubung Hotel
287,Iquique,CL,69.84,scattered clouds,-20.2208,-70.1431,Backpacker`s Hostel Iquique
289,Nangwa,TZ,61.11,overcast clouds,-4.4667,35.45,
290,Gallup,US,73.02,clear sky,35.5281,-108.7426,El Capitan Motel
291,Muisne,EC,82.51,broken clouds,0.6,-80.0333,Quinta Samay
293,Cabedelo,BR,81.27,overcast clouds,-6.9811,-34.8339,Hotel Pigalle
295,Lorengau,PG,80.67,broken clouds,-2.0226,147.2712,Lorengau Harbourside Hotel
296,Newport,GB,64.4,overcast clouds,51.5877,-2.9984,ibis budget Newport
297,Grand Gaube,MU,74.37,few clouds,-20.0064,57.6608,Veranda Paul et Virginie Hotel & Spa
298,Caxito,AO,83.05,broken clouds,-8.5785,13.6643,
299,Vilyuysk,RU,50.31,few clouds,63.7553,121.6247,Gostinitsa Viliuisk
300,Ca Mau,VN,78.58,scattered clouds,9.1769,105.15,Khách Sạn Mường Thanh Luxury Cà Mau
302,Lebork,PL,57.74,broken clouds,54.5392,17.7501,Vega
303,Capaci,IT,75.11,clear sky,38.1711,13.2393,Hotel Sirenetta
304,Kieta,PG,76.17,moderate rain,-6.2167,155.6333,Uruna Bay Retreat
306,Bahir Dar,ET,75.31,broken clouds,11.5936,37.3908,"Delano Hotel, Bahir Dar"
307,Ilheus,BR,85.82,few clouds,-14.7889,-39.0494,Barravento Hotel
309,Victoria,HK,86.97,broken clouds,22.2855,114.1577,Mini Hotel Central
310,Kulhudhuffushi,MV,83.8,clear sky,6.6221,73.07,Haajy Guest House 1
311,Sarangarh,IN,87.98,broken clouds,21.6,83.0833,JAGDISH STAINLESS STEEL WORK SHOP
314,Nelson Bay,AU,54.1,light rain,-32.7167,152.15,Mantra Nelson Bay
315,Plouzane,FR,69.89,clear sky,48.3833,-4.6167,Carrefour Voyages Plouzané
319,Nome,US,50.07,clear sky,64.5011,-165.4064,Dredge 7 Inn
321,Olafsvik,IS,51.39,heavy intensity rain,64.8945,-23.7142,Hotel Olafsvik
323,Gospic,HR,65.89,broken clouds,44.5461,15.3747,Apartment Saric
325,Praya,CV,79.34,few clouds,14.9215,-23.5087,LT Aparthotel
327,Luanda,AO,82.4,clear sky,-8.8368,13.2343,LANDU MARINEZA LUFUANDU TONI
328,Maumere,ID,77.54,clear sky,-8.6199,122.2111,Sylvia Hotel
330,Guerrero Negro,MX,64.94,few clouds,27.9769,-114.0611,"Casa Laguna, Bed & Breakfast"
331,Vila Velha,BR,85.95,few clouds,-20.3297,-40.2925,Quality Suites Vila Velha
334,Shieli,KZ,80.58,clear sky,44.1667,66.75,Gostinitsa Aybek Shieli
335,Mookane,BW,65.19,clear sky,-23.688000000000002,26.6595,
336,Port Lincoln,AU,58.1,overcast clouds,-34.7333,135.8667,Port Lincoln Hotel
337,Puerto Gaitan,CO,85.23,scattered clouds,4.3133,-72.0816,Brisas del Yucao
342,Alnavar,IN,75.07,broken clouds,15.4333,74.7333,Ashwin Hotel & Lodge
343,Tairua,NZ,53.1,light rain,-37.0167,175.85,Pacific Harbour Villas
344,Bull Savanna,JM,83.25,scattered clouds,17.8868,-77.5902,Big Red's
345,Soligalich,RU,57.15,overcast clouds,59.0778,42.2864,Kurort Im. A.p. Borodina
347,Lewisville,US,81.34,scattered clouds,33.0462,-96.9942,Best Western Plus Hotel Lewisville-Dallas
348,Kavaratti,IN,83.71,few clouds,10.5669,72.642,Hotels in Lakshadweep Islands
350,Teo,ES,78.03,few clouds,42.75,-8.5,Casa Rural Paz
351,Kuantan,MY,80.71,few clouds,3.8077,103.32600000000001,Hotel Sentral Kuantan
352,Mana,GF,79.43,overcast clouds,5.6592,-53.7767,LE SAMANA
354,Saky,UA,69.82,overcast clouds,45.1356,33.6031,Chayka
355,Fukue,JP,65.12,overcast clouds,32.6881,128.8419,Goto Guesthouse Utojuku & SA Car Rental
356,Vila Do Maio,CV,79.59,few clouds,15.1333,-23.2167,Hotel Marilu
357,Vallenar,CL,74.53,overcast clouds,-28.5708,-70.7581,Humacao Bed & Breakfast
359,Tiarei,PF,73.42,broken clouds,-17.5333,-149.3333,Le Rocher de Tahiti
360,Duncan,US,69.35,clear sky,34.5023,-97.9578,Days Inn by Wyndham Duncan
362,Sola,VU,77.27,overcast clouds,-13.8833,167.55,Leumerus Bungalows
363,Mgandu,TZ,66.81,scattered clouds,-5.95,34.1333,
366,Svetlogorsk,BY,60.62,overcast clouds,52.6333,29.7333,Hotel Svetlogorsk JBIK
367,Chekhov,RU,70.09,broken clouds,55.1431,37.4711,Domik v derevne
368,Pekan,MY,80.71,clear sky,3.4836,103.3996,Pekan Budget Hotel
369,San Cristobal,VE,78.98,few clouds,7.7669,-72.225,Posada Villaven C.A.
370,Aitape,PG,78.33,broken clouds,-3.1374,142.3475,
371,Marfino,RU,70.09,clear sky,55.7028,37.3822,Nemchinovka-Park
373,Ofaqim,IL,78.71,clear sky,31.3141,34.6203,The Negev Experience
374,Collie,AU,57.97,light rain,-33.3667,116.15,Collie Ridge
375,Alofi,NU,73.29,overcast clouds,-19.0595,-169.9187,Taloa Heights
376,Kavieng,PG,81.23,overcast clouds,-2.5744,150.7967,Nusa Island Retreat
377,Payo,ID,73.49,overcast clouds,-3.7508,103.6372,Mess keban agung
378,Salalah,OM,86.09,few clouds,17.0151,54.0924,HAMDAN PLAZA HOTEL SALALAH
379,Lata,PT,81.05,few clouds,40.1629,-8.3327,Casa Maquia
381,Hasaki,JP,68.29,light rain,35.7333,140.8333,Hotel Sunrise Choshi
382,Isfana,KG,70.36,broken clouds,39.8386,69.5306,Sayakat
383,Komsomolskiy,UZ,81.32,clear sky,40.4272,71.7189,Ikathouse
385,Nahariyya,IL,76.91,clear sky,33.0059,35.0941,Shtarkman Erna Hotel
386,Dhidhdhoo,MV,83.91,clear sky,6.8833,73.1,Dhidhoo beach
387,Salur,IN,87.85,broken clouds,18.5333,83.2167,Pradeep
388,Sao Filipe,CV,73.11,clear sky,14.8961,-24.4956,Hotel Xaguate
389,Korla,CN,82.02,clear sky,41.7597,86.1469,Gulisitan Hotel
390,Liverpool,GB,65.44,light rain,53.4106,-2.9779,Premier Inn Liverpool City Centre (Moorfields) hotel
391,Anloga,GH,86.22,overcast clouds,5.7947,0.8973,Pin Drop Hotel
392,Buala,SB,77.45,light rain,-8.145,159.5921,Maringe Lagoon Lodge
393,Agadir,MA,73.85,overcast clouds,30.4202,-9.5982,Iberostar Founty Beach
394,Eatonton,US,89.35,few clouds,33.3268,-83.3885,Western Motel of Eatonton
395,Beroroha,MG,70.95,scattered clouds,-21.6667,45.1667,
396,Owando,CG,82.45,overcast clouds,-0.4819,15.8999,Exaunel Hotel Owando
397,Moron,AR,70.02,overcast clouds,-34.6534,-58.6198,Hotel Morón
398,Alexandria,EG,75.74,scattered clouds,31.2156,29.9553,Royal Crown Hotel
399,Waw,SS,82.92,broken clouds,7.7029,27.9953,Universal Gab Hotel
400,Palmas Bellas,PA,88.34,overcast clouds,9.2319,-80.0867,Estación de Chagres
402,Margate,GB,63.32,overcast clouds,51.3813,1.3862,Premier Inn Margate hotel
403,Road Town,VG,86.04,scattered clouds,18.4167,-64.6167,"ZINGARA 76ft Catamaran, full crew-all included"
404,Trofors,NO,51.67,broken clouds,65.5333,13.4063,Hause for Marcus and Martinus
405,Villa Rica,US,84.58,overcast clouds,33.7321,-84.9191,Days Inn by Wyndham Villa Rica
407,San Quintin,MX,63.5,broken clouds,30.4833,-115.95,Don Eddie's Sport Fishing Center
409,San Miguel De Cauri,PE,56.77,scattered clouds,-10.1,-76.5833,San Miguel de Cauri
410,Balkhash,KZ,72.88,few clouds,46.843999999999994,74.9804,Family
412,Kaeo,NZ,56.32,light rain,-35.1,173.7833,Bushido Lodge
413,Sabang,ID,81.86,overcast clouds,5.8933,95.3214,Hotel Citra
414,Axim,GH,84.43,overcast clouds,4.8699,-2.2405,AXIM BEACH RESORT AND SPA
415,Shache,CN,79.56,few clouds,38.4167,77.2406,Delong Hotel
416,Golpayegan,IR,76.57,broken clouds,33.4537,50.2884,Golpayegan Tourist Hotel
417,Naze,JP,71.37,overcast clouds,28.3667,129.4833,奄美ポートタワーホテル
418,Yashan,CN,78.49,broken clouds,22.1975,109.9419,
419,Tervel,BG,60.75,overcast clouds,43.75,27.4,Хотели Тервел - Хотел Алгара
420,Tadine,NC,69.22,few clouds,-21.55,167.8833,
423,Namwala,ZM,62.82,clear sky,-15.7504,26.4384,Corner Point Lodge
424,Torbay,CA,54.88,scattered clouds,47.6666,-52.7314,Gallows Cove
425,Kembe,CF,77.47,light rain,4.6228,21.8865,
426,Ukiah,US,79.03,clear sky,39.1502,-123.2078,Hampton Inn Ukiah
427,Birsk,RU,60.75,clear sky,55.4211,55.5428,Kvartiry Posutochno V Birske
430,Faanui,PF,79.95,broken clouds,-16.4833,-151.75,Bora-Bora Pearl Beach Resort & Spa
431,Quatre Cocos,MU,74.08,scattered clouds,-20.2078,57.7625,Emeraude Beach Attitude Hotel
432,Kununurra,AU,60.78,overcast clouds,-15.7667,128.7333,Hotel Kununurra
435,Idar,DE,64.72,overcast clouds,49.7167,7.3,Diamanthotel-Handelshof
436,Vytegra,RU,51.55,broken clouds,61.0064,36.4481,Wardenclyffe Volgo&Balt
437,Isangel,VU,70.09,broken clouds,-19.55,169.2667,Tanna Lodge
438,Abadzekhskaya,RU,64.26,scattered clouds,44.3939,40.2214,Lukomor'ye
440,Tual,ID,81.32,scattered clouds,-5.6667,132.75,Grand Vilia Hotel
442,Lodja,CD,81.41,overcast clouds,-3.4833,23.4333,
443,Padang,ID,77.54,overcast clouds,-0.9492,100.3543,Mercure Padang
445,Emba,KZ,76.96,broken clouds,48.8264,58.1442,
446,Cancun,MX,87.73,broken clouds,21.1743,-86.8466,Hotel Tankah Cancun
447,Mimongo,GA,73.56,light rain,-1.6195,11.6068,
448,Bardiyah,LY,74.16,few clouds,31.7561,25.0865,بورتو بردية
450,Chalmette,US,88.0,few clouds,29.9427,-89.9634,Marina Inn & Suites Chalmette-New Orleans
452,Uray,RU,51.94,overcast clouds,60.1247,64.7758,Hotel Pioner
455,Itarema,BR,86.45,few clouds,-2.9248,-39.9167,"Sea Lounge! Bar, Club & Restaurant"
456,Taretan,MX,77.11,overcast clouds,19.3333,-101.9167,Hotel Posada Jardín
457,Simbahan,PH,83.28,broken clouds,6.3032,120.5836,
458,Mogadishu,SO,79.11,overcast clouds,2.0371,45.3438,Hotel Juba
459,Jieshi,CN,82.83,overcast clouds,22.8134,115.8257,Yuehai Hotel
460,Santa Ines,BR,88.65,clear sky,-3.6667,-45.38,HOTEL TOP
462,Weifang,CN,65.82,light rain,36.71,119.1019,潍坊国际金融大酒店
464,Nantucket,US,62.71,clear sky,41.2835,-70.0995,Jared Coffin House
465,Diu,IN,84.27,broken clouds,20.7141,70.9822,Hotel Relax Inn
466,Kirkwood,US,56.41,overcast clouds,38.5834,-90.4068,Holiday Inn St Louis SW - Route 66
467,Carmen,MX,86.04,scattered clouds,18.6333,-91.8333,Hotel Lossandes
468,Xining,CN,54.97,overcast clouds,36.6167,101.7667,Super Leisure Hotel
469,Dhankuta,NP,65.08,overcast clouds,26.9833,87.3333,Hotel Kanjirowa
470,Marawi,PH,71.65,broken clouds,7.9986,124.2928,Derogongan Residence
471,Carman,CA,59.92,clear sky,49.4992,-98.0016,"Bell Aura Bed, Breakfast & Bistro"
472,Raymondville,US,89.91,few clouds,26.4815,-97.7831,La Quinta Inn & Suites by Wyndham Raymondville
475,Prabumulih,ID,74.82,overcast clouds,-3.45,104.25,OYO 2722 Lemon Residence Prabumulih
476,Tazmalt,DZ,81.52,broken clouds,36.3868,4.3989,Hôtel Numédia
477,Puerto Leguizamo,CO,88.07,few clouds,-0.1934,-74.7819,la casona de juancho
479,San Luis,AR,65.12,broken clouds,-33.295,-66.3356,Huarpes Hotel
480,Siocon,PH,79.41,broken clouds,7.7061,122.1353,ABS Hotel
482,Nador,MA,73.47,few clouds,35.174,-2.9287,Hôtel La Giralda
483,La Primavera,CO,82.74,broken clouds,5.4906,-70.4092,La Riviera Hotel Colonial
484,Santarem,BR,86.13,scattered clouds,-2.4431,-54.7083,Ecotur Lodge
485,Maceio,BR,83.64,broken clouds,-9.6658,-35.7353,Poutur Pousada
486,Macheng,CN,69.17,overcast clouds,31.1783,115.0319,Shell Macheng City Macheng Bus Station Hotel
488,Labuhan,ID,79.21,overcast clouds,-6.8844,112.2051,PT PPI Lamongan Tambak C
490,Kinsale,IE,60.17,broken clouds,51.7075,-8.5306,Actons Hotel Kinsale
491,Mersing,MY,76.91,few clouds,2.4312,103.8405,Timotel Hotel
492,Medea,DZ,61.25,scattered clouds,36.2642,2.7539,Hôtel M'Sallah
493,Nurota,UZ,87.89,scattered clouds,40.5614,65.6886,Guest House Ruslan Nurata & Tours
495,Charters Towers,AU,53.65,clear sky,-20.1,146.2667,Cattleman's Rest Motor Inn
496,Sao Pedro Do Sul,BR,57.85,moderate rain,-29.6206,-54.1789,Sítio Hotel e Eventos
498,Kamiiso,JP,51.8,light rain,41.8167,140.65,ビジネス民宿あべ
500,Mountain Home,US,58.48,broken clouds,43.133,-115.6912,Mountain Home Inn
501,Saint-Georges,GD,82.44,scattered clouds,12.0564,-61.7485,Radisson Grenada Beach Resort
502,Mulchen,CL,55.26,overcast clouds,-37.7167,-72.2333,Hotel Los Maitenes de Villalón
504,Deming,US,86.25,clear sky,32.2687,-107.7586,Best Western Deming Southwest Inn
505,Nizhnyaya Salda,RU,55.78,overcast clouds,58.0776,60.7202,Salda
506,Lagos,NG,89.92,overcast clouds,6.5833,3.75,
508,Mbaiki,CF,75.42,light rain,3.8678,17.9892,
510,Sambava,MG,75.04,light rain,-14.2667,50.1667,Melrose
511,Saint-Joseph,RE,71.96,few clouds,-21.3667,55.6167,"""Plantation Bed and Breakfast"
512,Ruyigi,BI,62.46,broken clouds,-3.45,30.3167,
514,Zbarazh,UA,52.54,overcast clouds,49.6636,25.7762,Edelʹveys
515,Sobolevo,RU,60.98,overcast clouds,54.4299,31.8996,
516,Eureka,US,54.19,few clouds,40.8021,-124.1637,Eureka Inn Trademark By Wyndham
517,Saint Joseph,US,56.08,overcast clouds,39.7686,-94.8466,Whiskey Mansion Inn
518,Point Pedro,LK,82.35,scattered clouds,9.8167,80.2333,Gtr homes
519,Shirochanka,RU,69.12,scattered clouds,46.6497,38.3978,Эко-кемпинг St. Agria
520,Atambua,ID,70.68,scattered clouds,-9.1061,124.8925,Pastori 1 Jemaat Polycarpus
521,Khani,GE,63.97,light rain,41.9563,42.9566,კურორტი ზეკარი/Resort Zekari
523,Hof,DE,58.5,few clouds,50.3167,11.9167,Hotel Burghof
524,Dharchula,IN,72.46,overcast clouds,29.85,80.5333,Mahara Hotel
525,Tura,IN,73.83,scattered clouds,25.5198,90.2201,Hotel RIKMAN Continental
526,Los Llanos De Aridane,ES,68.13,few clouds,28.6585,-17.9182,Valle Aridane
527,Mapiripan,CO,85.78,broken clouds,2.8892,-72.1256,Monserrate
529,Itoman,JP,77.77,broken clouds,26.1247,127.6694,Southern Beach Hotel & Resort Okinawa
530,Kailua,US,75.18,few clouds,21.4022,-157.7394,Sheffield House Bed & Breakfast
531,Russell,US,84.11,broken clouds,32.3502,-85.1999,Macs
532,Paris,FR,73.26,clear sky,48.8534,2.3488,Hôtel Britannique - Paris Centre
533,Xinzhi,CN,71.28,broken clouds,36.4989,111.7047,Mingyue Hotel
534,Tytuvenai,LT,53.51,light rain,55.6,23.2,Svečių namai Tarp trijų ežerų
535,Asosa,ET,70.18,broken clouds,10.0667,34.5333,Blendana Hotel Assosa
536,Stupino,RU,69.55,light rain,54.9008,38.0708,Hotel Melnitsa
537,Kotri,PK,87.89,clear sky,25.366,68.3122,Drivers Running Room
538,Mbandaka,CD,78.91,light rain,0.0487,18.2603,Guest House Epervier
539,Mayumba,GA,78.35,light rain,-3.432,10.6554,LIKWALE LODGE
540,Baculin,PH,78.26,broken clouds,7.4525,126.5842,Shovy's Cove
541,Along,IN,72.88,scattered clouds,28.1667,94.7667,Hotel West
542,Turka,UA,56.8,overcast clouds,49.1541,23.0297,Мотель
543,Ulladulla,AU,51.1,overcast clouds,-35.35,150.4667,Sandpiper Motel
544,Soe,ID,65.84,broken clouds,-9.8607,124.28399999999999,Dena Hotel
546,Rio Grande,BR,62.71,moderate rain,-32.035,-52.0986,Hotel Atlântico Rio Grande
547,Pimentel,PE,70.0,overcast clouds,-6.8367,-79.9342,Casona Del Muelle
548,Gorontalo,ID,76.17,scattered clouds,0.5412,123.0595,Maqna Hotel by Prasanthi
549,Damphu,BT,67.3,broken clouds,27.0721,90.1096,
551,Fare,PF,79.36,scattered clouds,-16.7,-151.0167,Maitai Lapita Village Huahine
553,Tongliao,CN,55.11,scattered clouds,43.6125,122.2653,Meirujia Hotel
554,Hirara,JP,81.03,overcast clouds,24.8,125.2833,Hotel Atoll Emerald Miyakojima
555,Peniche,PT,80.55,broken clouds,39.3558,-9.3811,Hotel Star inn Peniche
556,Bogdana,RO,64.02,overcast clouds,43.9333,25.0833,
557,Mount Isa,AU,64.17,scattered clouds,-20.7333,139.5,ibis Styles Mt Isa Verona
559,Iki-Burul,RU,75.54,scattered clouds,45.8208,44.6472,
560,Pokhara,NP,68.58,moderate rain,28.2333,83.9833,Butterfly Lodge
561,Bluefield,US,77.04,few clouds,37.2698,-81.2223,Economy Inn
562,Gizo,SB,77.56,moderate rain,-8.103,156.8419,Imagination Island
564,Belogorsk,RU,50.43,overcast clouds,50.9158,128.4611,Gostinitsa Vostok 2000
566,Wuwei,CN,67.19,overcast clouds,37.9281,102.6414,Thank Inn Chain Hotel gansu wuwei liangzhou district xiguan middle road
567,Nukus,UZ,89.58,clear sky,42.4531,59.6103,Hotel Jipek Joli
569,Talcahuano,CL,55.08,broken clouds,-36.7167,-73.1167,Hotel Terramar
570,Sendhwa,IN,86.43,overcast clouds,21.6833,75.1,Hotel Shagun Garden
572,Fort Nelson,CA,56.79,few clouds,58.8053,-122.7002,The Fort Nelson Hotel
573,Omboue,GA,78.55,light rain,-1.5746,9.2618,Hotel Olako
574,Tieling,CN,55.92,broken clouds,42.2931,123.8414,Tieling 99 Yuejia Business Guest House
575,Tshikapa,CD,79.25,clear sky,-6.4167,20.8,Hôtel Tshia-Muntu de Tshikapa
576,Tubinskiy,RU,68.14,clear sky,52.8892,58.2225,Palatochnyy Gorodok
579,Arecibo,PR,88.48,clear sky,18.4724,-66.7157,Atlantic Sand Oasis
580,Ceuta,ES,77.11,broken clouds,35.8903,-5.3075,Ceuta Puerta de Africa
581,Brownwood,US,84.29,broken clouds,31.7093,-98.9912,La Quinta Inn & Suites by Wyndham Brownwood
583,Hornepayne,CA,53.91,clear sky,49.2138,-84.7705,Jackfish River Inn
584,Ambulu,ID,75.65,broken clouds,-8.345,113.6058,Hotel Ambulu Jember
585,Oriximina,BR,84.99,few clouds,-1.7656,-55.8661,Pousada Tia Amélia
586,La Asuncion,VE,82.09,clear sky,11.0333,-63.8628,Colinas de Matasiete
587,Muriwai Beach,NZ,60.35,light rain,-36.8167,174.45,Coast Retreat Muriwai - Golf and Surf Holiday
588,Cumana,VE,81.64,few clouds,10.4635,-64.1775,TIUNA INN HOTEL
589,Tabas,IR,89.87,clear sky,33.5959,56.9244,شرکت معماری مهراز شایگان آراد
590,Soyo,AO,82.45,scattered clouds,-6.1349,12.3689,Hotel Mpampa
591,Acapulco,MX,87.62,scattered clouds,16.8634,-99.8901,HS Hotsson Smart Acapulco
592,Bonavista,CA,53.6,scattered clouds,48.6499,-53.1147,Abbott's Bed & Breakfast
593,Canmore,CA,51.76,overcast clouds,51.0834,-115.3521,Blackstone Mountain Lodge by CLIQUE
594,Panguna,PG,68.11,light rain,-6.3164,155.4848,
595,Nosy Varika,MG,70.56,clear sky,-20.5833,48.5333,Hotel Volazara
596,Balkanabat,TM,89.71,clear sky,39.5108,54.3671,Nebitchi Hotel
600,Nagato,JP,71.51,scattered clouds,34.3833,131.2,いそう庵
601,Dongsheng,CN,68.27,clear sky,39.8161,109.9776,Crowne Plaza Ordos
603,Usogorsk,RU,50.65,overcast clouds,63.4106,48.6872,"""Dom Invest - Kvartiry Posutochno"""
607,Husainabad,IN,80.65,broken clouds,24.5333,84.0167,Mehdinager
608,Ridgecrest,US,81.64,clear sky,35.6225,-117.6709,SpringHill Suites by Marriott Ridgecrest
609,Kahului,US,76.84,few clouds,20.8947,-156.47,Maui Seaside Hotel
610,Pemba,MZ,74.1,broken clouds,-12.974,40.5178,Guesthouse Samotina
611,Hinton,CA,50.11,broken clouds,53.4001,-117.5857,Econo Lodge & Suites
613,Abomey,BJ,89.92,scattered clouds,7.1829,1.9912,Residence Hotel Marie Emmanuella
614,Morro Bay,US,73.38,clear sky,35.3658,-120.8499,Inn at Morro Bay
615,Lewistown,US,68.99,broken clouds,40.5992,-77.5714,Quality Inn & Suites
617,Gushikawa,JP,77.0,broken clouds,26.3544,127.8686,Kirari Guest House
618,Orange Cove,US,78.84,clear sky,36.6244,-119.3137,
619,Tete,MZ,71.04,clear sky,-16.1564,33.5867,Zambeze Paraíso Misterioso
620,Porto Novo,BJ,87.62,overcast clouds,6.4965,2.6036,Tour Eiffel Hotel Benin
621,Fortuna,US,59.67,overcast clouds,40.5982,-124.1573,Super 8 by Wyndham Fortuna
622,Lucapa,AO,73.63,clear sky,-8.4192,20.7447,Residência Ulisses Dos Santos
624,Tekeli,KZ,57.13,overcast clouds,44.83,78.8239,Тау Саулесi
625,Paso De Los Toros,UY,64.74,light rain,-32.8167,-56.5167,Complejo Isabelino
626,Pianco,BR,88.09,overcast clouds,-7.1981,-37.9292,Via hotel
627,Karratha,AU,75.67,broken clouds,-20.7377,116.8463,ibis Styles Karratha
628,Kathu,TH,83.62,broken clouds,7.9178,98.3332,Novotel Phuket Resort
629,Copiapo,CL,60.49,overcast clouds,-27.3667,-70.3333,San Francisco de La Selva
630,Stepnyak,KZ,58.69,clear sky,52.8339,70.7803,
631,Aguimes,ES,70.43,few clouds,27.9054,-15.4461,Hotel Villa de Aguimes
634,Ko Samui,TH,83.21,broken clouds,9.5357,99.9357,"The Passage Samui Villas & Resort, Thailand"
635,Hilotongan,PH,84.56,overcast clouds,11.144,123.6426,
636,Nioki,CD,82.67,broken clouds,-2.7167,17.6833,
637,Oga,IT,65.08,broken clouds,46.4631,10.347000000000001,QC Terme Bagni di Bormio Bagni Nuovi
638,Ponta Delgada,PT,66.92,few clouds,37.7333,-25.6667,Vila Nova Hotel
640,Japura,ID,73.87,clear sky,-0.3167,102.35,Rumah mbah Jamah
644,Lannion,FR,68.25,broken clouds,48.75,-3.4167,Hotel Arcadia
646,Babaeski,TR,61.92,moderate rain,41.4325,27.0931,Babaeski Ogretmenevi
647,Taurage,LT,55.94,light rain,55.2522,22.2897,Senamiesčio apartamentai
649,Ouesso,CG,79.65,overcast clouds,1.6136,16.0517,Hôtel LAVOUMA suite
650,Arivonimamo,MG,59.05,clear sky,-19.0167,47.1833,
651,Francistown,BW,64.58,clear sky,-21.17,27.5079,Budget House
652,Nivala,FI,50.68,scattered clouds,63.9167,24.9667,Hotelli Huiskankorpi / Aseman majatalo
653,Angatuba,BR,84.16,overcast clouds,-23.4897,-48.4128,Pousada da Vovó
655,Atraulia,IN,76.08,overcast clouds,26.3333,82.95,ShivKunj
657,Mareeba,AU,63.32,few clouds,-17.0,145.4333,Trinity Plains Tourist Park
659,Rawlins,US,67.33,clear sky,41.7911,-107.2387,"Holiday Inn Express Rawlins, an IHG Hotel"
660,Kasongo,CD,77.94,overcast clouds,-4.45,26.6667,Guest Hôtel
661,Winneba,GH,86.47,broken clouds,5.3511,-0.6231,Windy Lodge & Beach Resort
662,Santa Isabel Do Rio Negro,BR,82.42,scattered clouds,-0.4139,-65.0192,Hotel GSA
663,Rawa Mazowiecka,PL,61.63,broken clouds,51.7644,20.2549,Obiekt Tatar - Usługi hotelarskie
665,Port-Gentil,GA,82.36,light rain,-0.7193,8.7815,Fengshui Residence
666,Santa Maria,BR,58.3,moderate rain,-29.6842,-53.8069,Hotel Morotin
667,Owerri,NG,83.79,moderate rain,5.4833,7.0304,Donamario
668,Praia,CV,79.34,few clouds,14.9215,-23.5087,LT Aparthotel
670,Iralaya,HN,87.89,overcast clouds,15.0,-83.2333,Iglesia morava renovada
672,Mao,ES,68.56,few clouds,39.8885,4.2658,ARTIEM Capri
673,Mineros,BO,85.59,overcast clouds,-17.1167,-63.2333,Colpacaranda Eco Resort
675,Wanning,CN,81.95,overcast clouds,18.8003,110.3967,Paradise Hotel
677,Saint-Pierre,RE,73.04,clear sky,-21.3393,55.4781,Lindsey Hôtel
678,Canico,PT,75.0,scattered clouds,32.6333,-16.85,Quinta Splendida Wellness & Botanical Garden
680,Limon,CR,84.09,broken clouds,10.0,-83.0333,Hotel Playa Bonita
681,Puerto Cabezas,NI,87.76,broken clouds,14.0351,-83.3888,Cabaña Caribe
682,San Policarpo,PH,81.68,overcast clouds,12.1791,125.5072,JM Lodge
685,Nandurbar,IN,87.49,overcast clouds,21.3667,74.25,Hotel Heera Executive
687,Abha,SA,73.22,clear sky,18.2164,42.5053,Abha Hotel
688,Jauja,PE,62.49,few clouds,-11.7758,-75.4966,Hotel TunanMarca
689,Sao Gabriel Da Cachoeira,BR,85.8,scattered clouds,-0.1303,-67.0892,Alarne - Área De Lazer Do Alto Rio Negro
690,Dakar,SN,83.28,scattered clouds,14.6937,-17.4441,Redface Studios Meublés
691,Opunake,NZ,53.35,moderate rain,-39.4556,173.8583,Walton Cottage
692,Skoghall,SE,70.36,clear sky,59.3232,13.4655,Mörudden Camping & Stugby
694,Nahuizalco,SV,85.87,overcast clouds,13.7775,-89.7367,Fundación Los Pámpanos
695,Rafai,CF,77.85,overcast clouds,4.95,23.9167,
697,Jijiga,ET,64.62,broken clouds,9.35,42.8,RAMAAS HOTEL
698,Botou,CN,74.44,light rain,38.0667,116.5667,Hanting Hotel Huanghua City Hall
699,Kingman,US,86.52,clear sky,35.1894,-114.053,Rodeway Inn Kingman Route 66
700,Liberta,AG,84.74,scattered clouds,17.0333,-61.7833,The Inn At English Harbour
701,Den Helder,NL,64.98,clear sky,52.9599,4.7593,Hotel Den Helder
702,Buchanan,LR,87.76,light rain,5.8808,-10.0467,Kamaneahn Hotel Inc
704,Lloydminster,CA,58.68,broken clouds,53.2835,-110.0016,BCMInns - Lloydminster
705,Lerwick,GB,50.0,overcast clouds,60.1545,-1.1494,The Lerwick Hotel
706,Antalaha,MG,72.61,clear sky,-14.9003,50.2788,Hotel Vitasoa
707,Yuanping,CN,63.23,clear sky,38.7153,112.7575,Yuanping Xinghe Guesthouse
708,Chumphon,TH,73.22,overcast clouds,10.3333,98.8333,สกาน จ๋า.
710,Gemena,CD,79.7,overcast clouds,3.25,19.7667,Hôtel Goshen
711,Sioux Lookout,CA,53.67,clear sky,50.1001,-91.917,Knobby's Fly-In Camps
712,Oktyabrskoye,RU,68.14,broken clouds,43.0645,44.7417,Prolesok Mini-hotel
713,Baghmara,IN,83.89,few clouds,23.795,86.2085,Shankar tea shop
714,Dwarka,IN,83.95,scattered clouds,22.2394,68.9678,Hotel Narayan Avezika Comfort
715,Kargopol,RU,50.56,broken clouds,61.5071,38.9456,Moroshka Inn
716,Ranot,TH,80.53,overcast clouds,7.7777,100.3213,Pakbanglake resort ปากบางเลค รีสอร์ท
717,Saint-Francois,FR,72.84,clear sky,46.4154,3.9054,Manoir Du Bonheur
719,Piacabucu,BR,81.57,broken clouds,-10.4056,-36.4344,Piaçabuçu News
